[
  {
    "name": "Bir Hospital",
    "type": "hospital",
    "lat": 27.706148,
    "lng": 85.312329,
    "address": "Mahaboudha Rd, Kathmandu 44600",
    "contact": "+977-1-4221119",
    "services": ["emergency", "surgery", "ICU"]
  },
  {
    "name": "Tribhuvan University Teaching Hospital",
    "type": "hospital",
    "lat": 27.738992,
    "lng": 85.329255,
    "address": "Maharajgunj, Kathmandu 44600",
    "contact": "+977-1-4412303",
    "services": ["teaching", "transfusion"]
  },
  {
    "name": "Grande International Hospital",
    "type": "hospital",
    "lat": 27.753401,
    "lng": 85.335237,
    "address": "Dhapasi Height, Kathmandu 44600",
    "contact": "+977-1-5159266",
    "services": ["cardiac", "emergency"]
  },
  {
    "name": "Patan Hospital",
    "type": "hospital",
    "lat": 27.668949,
    "lng": 85.323608,
    "address": "Lagankhel Rd, Lalitpur 44700",
    "contact": "+977-1-5522295",
    "services": ["maternal", "transfusion"]
  },
  {
    "name": "Nepal Red Cross Central Blood Bank",
    "type": "blood_bank",
    "lat": 27.69061,
    "lng": 85.321884,
    "address": "Tripureshwor Rd, Kathmandu 44614",
    "contact": "+977-1-4211916",
    "services": ["component", "apheresis"]
  },
  {
    "name": "Bhaktapur Blood Transfusion Service",
    "type": "blood_bank",
    "lat": 27.672338,
    "lng": 85.429181,
    "address": "Nagarkot Rd, Bhaktapur 44800",
    "contact": "+977-1-6611661",
    "services": ["whole blood", "camp support"]
  },
  {
    "name": "Lalitpur Red Cross Blood Bank",
    "type": "blood_bank",
    "lat": 27.667842,
    "lng": 85.322096,
    "address": "Lagankhel Chowk, Lalitpur 44700",
    "contact": "+977-1-5520419",
    "services": ["component", "inventory"]
  },
  {
    "name": "Teaching Hospital Blood Bank",
    "type": "blood_bank",
    "lat": 27.739654,
    "lng": 85.329812,
    "address": "TU Teaching Hospital Campus, Maharajgunj",
    "contact": "+977-1-4410911",
    "services": ["screening", "component"]
  }
]
